[
    {
        "title": "Zurich",
        "location": {
            "lat": 47.3672808,
            "lng": 8.5408271
        }
    },
    {
        "title": "St.Gallen",
        "location": {
            "lat": 47.42259,
            "lng": 9.37600
        }
    },
    {
        "title": "Baden",
        "location": {
            "lat": 47.47105,
            "lng": 8.30761
        }
    },
    {
        "title": "Basel",
        "location": {
            "lat": 46.19803,
            "lng": 6.14065
        }
    },
    {
        "title": "Bern",
        "location": {
            "lat": 46.94913,
            "lng": 7.45045
        }
    }
]
